City_ID,City,Country,Lat,Lng,Max Temp,Humidity,Cloudiness,Wind Speed,Current Description
0,Mokhsogollokh,RU,61.4681,128.9203,-26.86,100,84,3.0,broken clouds
1,Tarime,TZ,-1.35,34.3667,72.32,51,51,4.88,broken clouds
2,Benguela,AO,-12.5763,13.4055,77.34,74,93,5.44,overcast clouds
3,Kruisfontein,ZA,-34.0033,24.7314,68.88,80,0,7.4,clear sky
4,Rikitea,PF,-23.1203,-134.9692,77.38,88,100,19.93,moderate rain
5,Busselton,AU,-33.65,115.3333,62.42,85,13,6.17,few clouds
6,Punta Arenas,CL,-53.15,-70.9167,48.31,76,75,9.22,broken clouds
7,Vaini,TO,-21.2,-175.2,75.36,64,20,8.05,few clouds
8,Nanortalik,GL,60.1432,-45.2371,31.24,85,56,1.28,broken clouds
9,Mehamn,NO,71.0357,27.8492,22.95,86,100,12.66,light shower snow
10,New Norfolk,AU,-42.7826,147.0587,49.5,72,71,1.01,broken clouds
11,Vieira De Leiria,PT,39.8695,-8.9324,63.41,93,75,16.11,light intensity drizzle
12,Deputatskiy,RU,69.3,139.9,-32.3,100,69,4.23,broken clouds
13,Paso De Los Toros,UY,-32.8167,-56.5167,100.47,16,10,8.52,clear sky
14,Mar Del Plata,AR,-38.0023,-57.5575,81.82,78,75,6.91,broken clouds
15,Cape Town,ZA,-33.9258,18.4232,70.38,75,20,11.5,few clouds
16,Belmonte,BR,-15.8631,-38.8828,84.2,61,62,7.7,broken clouds
17,Nantucket,US,41.2835,-70.0995,42.85,76,100,25.32,overcast clouds
18,Kununurra,AU,-15.7667,128.7333,84.18,89,100,5.75,overcast clouds
19,Vila Franca Do Campo,PT,37.7167,-25.4333,63.01,87,44,20.2,light rain
20,Lata,PT,40.1629,-8.3327,60.08,97,100,8.03,light rain
21,Spearfish,US,44.4908,-103.8594,36.1,72,99,6.91,mist
22,Albany,US,42.6001,-73.9662,38.34,60,49,8.99,scattered clouds
23,Temiscaming,CA,46.7212,-79.0971,24.35,63,100,10.36,overcast clouds
24,Nikolskoye,RU,59.7035,30.7861,30.09,92,87,6.6,light snow
25,Saint-Pierre,RE,-21.3393,55.4781,78.48,69,0,8.05,clear sky
26,Castro,BR,-24.7911,-50.0119,80.6,51,47,5.86,scattered clouds
27,Jucuaran,SV,13.2539,-88.2478,88.74,28,99,3.71,overcast clouds
28,Ribeira Grande,PT,38.5167,-28.7,63.0,82,75,23.02,moderate rain
29,Ushuaia,AR,-54.8,-68.3,51.46,43,40,4.61,scattered clouds
30,Woodward,US,36.4337,-99.3904,51.96,57,40,11.5,scattered clouds
31,Dikson,RU,73.5069,80.5464,-33.21,97,69,8.1,broken clouds
32,Atuona,PF,-9.8,-139.0333,79.7,75,14,10.67,few clouds
33,Khatanga,RU,71.9667,102.5,-8.97,99,100,3.4,overcast clouds
34,Samarai,PG,-10.6167,150.6667,80.96,76,70,4.5,broken clouds
35,Touros,BR,-5.1989,-35.4608,84.06,66,81,16.08,broken clouds
36,Hermanus,ZA,-34.4187,19.2345,65.8,76,0,13.31,clear sky
37,San Patricio,US,28.017,-97.5169,85.15,46,55,16.13,broken clouds
38,Butaritari,KI,3.0707,172.7902,81.1,74,91,9.08,overcast clouds
39,Jamestown,US,42.097,-79.2353,35.53,58,20,8.01,few clouds
40,Qaanaaq,GL,77.484,-69.3632,4.78,77,5,7.61,clear sky
41,Hithadhoo,MV,-0.6,73.0833,82.45,75,8,10.71,clear sky
42,Port Elizabeth,ZA,-33.918,25.5701,71.1,85,0,20.0,clear sky
43,Axim,GH,4.8699,-2.2405,81.95,75,52,7.47,broken clouds
44,Yenagoa,NG,4.9247,6.2642,82.13,77,84,7.74,broken clouds
45,Minden,DE,52.2833,8.9167,34.02,88,75,9.22,broken clouds
46,Sabang,ID,5.8933,95.3214,81.81,72,53,15.26,broken clouds
47,Chokurdakh,RU,70.6333,147.9167,-21.73,96,100,1.72,overcast clouds
48,Sao Jose Da Coroa Grande,BR,-8.8978,-35.1478,83.46,68,25,11.52,scattered clouds
49,Ahipara,NZ,-35.1667,173.1667,60.58,85,100,5.23,overcast clouds
50,Novorzhev,RU,57.0294,29.3338,29.41,83,84,16.2,broken clouds
51,Rybnoye,RU,54.7256,39.5119,32.02,97,100,18.3,light snow
52,Norman Wells,CA,65.282,-126.8329,-9.36,70,0,12.66,clear sky
53,Puerto Ayora,EC,-0.7393,-90.3518,85.55,77,84,13.0,broken clouds
54,Ust-Tsilma,RU,65.441,52.1498,6.78,96,87,5.86,overcast clouds
55,Muli,MV,2.9167,73.5667,82.63,73,3,15.26,clear sky
56,Fare,PF,-16.7,-151.0167,82.71,71,100,8.75,overcast clouds
57,Harrison,US,30.4091,-89.0436,80.62,90,100,8.05,haze
58,Huarmey,PE,-10.0681,-78.1522,80.08,67,84,9.24,broken clouds
59,Arraial Do Cabo,BR,-22.9661,-42.0278,89.56,61,40,20.71,scattered clouds
60,Balikpapan,ID,-1.2675,116.8289,76.19,94,20,3.44,few clouds
61,Pevek,RU,69.7008,170.3133,-12.66,93,99,1.97,overcast clouds
62,Arlit,NE,18.7369,7.3853,92.75,8,66,8.08,broken clouds
63,Lake City,US,30.1897,-82.6393,74.62,46,0,8.05,clear sky
64,Mae Sai,TH,20.4335,99.8762,71.4,43,2,2.37,clear sky
65,Lompoc,US,34.6391,-120.4579,54.79,69,75,8.99,broken clouds
66,Hobart,AU,-42.8794,147.3294,49.86,81,86,12.66,overcast clouds
67,Tautira,PF,-17.7333,-149.15,80.22,83,98,8.68,light rain
68,Guiratinga,BR,-16.3494,-53.7583,80.26,74,100,8.21,overcast clouds
69,Ranot,TH,7.7777,100.3213,79.2,76,10,13.18,clear sky
70,Kapaa,US,22.0752,-159.319,73.47,62,0,21.85,clear sky
71,Nishihara,JP,26.1842,127.7558,64.45,70,40,6.91,scattered clouds
72,Mahebourg,MU,-20.4081,57.7,77.29,73,40,4.61,scattered clouds
73,Bima,ID,-8.4667,118.7167,75.49,93,100,2.1,overcast clouds
74,Tasiilaq,GL,65.6145,-37.6368,19.56,72,26,3.38,scattered clouds
75,Thompson,CA,55.7435,-97.8558,3.36,66,20,3.44,few clouds
76,Bredasdorp,ZA,-34.5322,20.0403,69.51,64,0,11.18,clear sky
77,Colares,PT,38.7992,-9.4469,63.99,96,75,20.0,light intensity drizzle
78,Liberia,LR,6.5,-9.5,92.16,36,94,3.4,overcast clouds
79,Bambous Virieux,MU,-20.3428,57.7575,77.25,73,40,4.61,scattered clouds
80,Hobyo,SO,5.3505,48.5268,79.43,77,12,16.4,few clouds
81,Lulea,SE,65.5842,22.1547,3.27,78,0,3.44,clear sky
82,Bluff,NZ,-46.6,168.3333,59.13,87,100,7.65,overcast clouds
83,Brownsville,US,25.9018,-97.4975,85.08,67,20,19.57,few clouds
84,Mangrol,IN,21.1167,70.1167,76.62,56,3,4.47,clear sky
85,Geraldton,AU,-28.7667,114.6,72.01,88,40,8.05,scattered clouds
86,Glendive,US,47.1053,-104.7125,19.49,82,100,11.5,overcast clouds
87,Barrow,US,71.2906,-156.7887,21.22,86,100,18.41,overcast clouds
88,Mataura,NZ,-46.1927,168.8643,57.24,99,100,1.77,overcast clouds
89,Bandarbeyla,SO,9.4942,50.8122,77.88,78,23,12.37,few clouds
90,Saint-Georges,GD,12.0564,-61.7485,83.88,74,20,20.71,few clouds
91,Zlobin,HR,45.2924,14.6541,47.5,82,75,10.36,broken clouds
92,Porto Torres,IT,40.835,8.3972,59.18,88,85,12.75,overcast clouds
93,Cidreira,BR,-30.1811,-50.2056,78.57,75,91,3.47,overcast clouds
94,Alta Floresta,BR,-9.8756,-56.0861,79.27,91,78,2.77,heavy intensity rain
95,Sholapur,IN,17.6833,75.9167,85.78,19,55,7.25,broken clouds
96,Kozhevnikovo,RU,56.2589,83.9714,13.86,89,100,11.32,overcast clouds
97,Cherskiy,RU,68.75,161.3,-24.65,100,98,6.46,overcast clouds
98,Los Llanos De Aridane,ES,28.6585,-17.9182,65.95,91,75,3.44,broken clouds
99,Carauari,BR,-4.8828,-66.8958,80.29,85,100,3.98,overcast clouds
100,Yellowknife,CA,62.456,-114.3525,-3.48,77,40,5.75,scattered clouds
101,Sarangani,PH,5.4033,125.4636,81.82,75,46,7.85,scattered clouds
102,Hilo,US,19.7297,-155.09,76.62,84,0,3.44,clear sky
103,Luderitz,NA,-26.6481,15.1594,63.5,87,0,10.49,clear sky
104,Provideniya,RU,64.3833,-173.3,-7.42,100,99,1.45,overcast clouds
105,Chernyshevskiy,RU,63.0128,112.4714,-1.68,100,99,0.47,overcast clouds
106,Tuktoyaktuk,CA,69.4541,-133.0374,-5.8,84,75,23.02,broken clouds
107,Prince Rupert,CA,54.3161,-130.3201,33.49,74,20,5.75,few clouds
108,Krasnokamensk,RU,50.0979,118.0369,10.99,84,86,5.01,overcast clouds
109,Umm Kaddadah,SD,13.6017,26.6876,81.54,15,100,11.86,overcast clouds
110,Tupelo,US,34.2576,-88.7034,64.22,76,100,20.71,overcast clouds
111,Chumikan,RU,54.7183,135.315,1.42,95,77,3.47,broken clouds
112,Torbay,CA,47.6666,-52.7314,35.38,94,100,25.01,overcast clouds
113,Ayan,RU,56.45,138.1667,-2.13,91,53,5.86,broken clouds
114,Narsaq,GL,60.9167,-46.05,39.42,70,0,2.04,clear sky
115,Port Alfred,ZA,-33.5906,26.891,66.18,81,0,1.01,clear sky
116,Dudinka,RU,69.4058,86.1778,-31.16,99,78,5.23,broken clouds
117,Victoria,HK,22.2855,114.1577,71.2,82,12,4.27,few clouds
118,Kodiak,US,57.79,-152.4072,33.31,86,0,3.44,clear sky
119,Upernavik,GL,72.7868,-56.1549,5.7,97,100,11.3,overcast clouds
120,Bac Lieu,VN,9.285,105.7244,75.9,77,2,16.15,clear sky
121,Bengkulu,ID,-3.8004,102.2655,76.21,90,74,4.65,broken clouds
122,Carnarvon,AU,-24.8667,113.6333,77.34,75,1,16.17,clear sky
123,Shaunavon,CA,49.6501,-108.4181,6.58,90,97,10.67,overcast clouds
124,Anadyr,RU,64.75,177.4833,-14.01,75,40,4.47,scattered clouds
125,Aguimes,ES,27.9054,-15.4461,66.83,73,20,9.22,few clouds
126,Kui Buri,TH,12.0828,99.8543,72.95,75,3,5.3,clear sky
127,Karasburg,NA,-28.0167,18.75,74.23,20,0,10.58,clear sky
128,Zyryanka,RU,65.75,150.85,-31.52,100,50,5.77,scattered clouds
129,Poum,NC,-20.2333,164.0167,79.3,68,6,19.84,clear sky
130,Linxia,CN,35.6003,103.2064,43.54,40,20,2.39,few clouds
131,Saskylakh,RU,71.9167,114.0833,-8.32,91,100,11.56,overcast clouds
132,Areni,AM,39.7191,45.1799,49.66,45,99,3.47,overcast clouds
133,Melfi,IT,40.9965,15.6514,54.5,86,89,8.21,overcast clouds
134,Kahului,US,20.8947,-156.47,72.84,90,100,29.93,heavy intensity rain
135,Puerto Madero,MX,14.7208,-92.4215,84.78,62,45,11.01,scattered clouds
136,Viedma,AR,-40.8135,-62.9967,78.1,47,99,16.13,moderate rain
137,Canton,CN,23.1167,113.25,74.88,51,52,5.97,broken clouds
138,Yar-Sale,RU,66.8333,70.8333,-5.06,88,95,15.55,overcast clouds
139,Salalah,OM,17.0151,54.0924,80.69,50,0,2.3,clear sky
140,Dolores,AR,-36.3132,-57.6792,95.13,24,0,4.99,clear sky
141,Taunggyi,MM,20.7833,97.0333,61.65,40,75,0.65,broken clouds
142,Adre,TD,13.4667,22.2,87.42,11,100,17.81,overcast clouds
143,Devonport,AU,-41.1667,146.35,50.09,82,44,13.02,scattered clouds
144,Katsuura,JP,35.1333,140.3,59.09,78,76,13.65,broken clouds
145,Yertsevo,RU,60.7966,40.086,22.44,93,100,12.62,light snow
146,Malakal,SS,9.5334,31.6605,92.25,20,68,1.39,broken clouds
147,Chabahar,IR,25.2919,60.643,76.84,66,0,7.2,clear sky
148,Saint-Philippe,RE,-21.3585,55.7679,78.39,76,76,11.23,broken clouds
149,Maneadero,MX,31.7167,-116.5667,56.1,70,53,4.0,broken clouds
150,Lorengau,PG,-2.0226,147.2712,79.45,82,100,7.09,overcast clouds
151,Avarua,CK,-21.2078,-159.775,77.05,100,75,4.61,moderate rain
152,Faanui,PF,-16.4833,-151.75,82.63,71,100,7.58,overcast clouds
153,Nizwa,OM,22.9333,57.5333,74.03,29,45,9.26,scattered clouds
154,Moron,AR,-34.6534,-58.6198,98.02,52,0,1.07,clear sky
155,Kaitangata,NZ,-46.2817,169.8464,59.14,96,100,4.7,moderate rain
156,Erzin,TR,36.9559,36.2,54.9,78,100,1.88,overcast clouds
157,Ojinaga,MX,29.5667,-104.4167,75.42,25,0,0.0,clear sky
158,Sioux Lookout,CA,50.1001,-91.917,19.47,79,100,9.22,light snow
159,Airai,TL,-8.9266,125.4092,60.66,95,96,1.23,overcast clouds
160,Longyearbyen,SJ,78.2186,15.6401,4.84,78,100,27.63,light snow
161,Port Lincoln,AU,-34.7333,135.8667,60.04,76,29,8.81,scattered clouds
162,Rio Gallegos,AR,-51.6226,-69.2181,57.25,58,40,3.44,scattered clouds
163,Verkhnyaya Balkariya,RU,43.1279,43.4573,34.72,71,48,10.09,scattered clouds
164,Shakawe,BW,-18.3667,21.85,70.0,81,93,5.32,light rain
165,Cabo San Lucas,MX,22.8909,-109.9124,79.61,50,73,7.27,broken clouds
166,Vila Velha,BR,-20.3297,-40.2925,87.75,71,20,12.66,few clouds
167,Hofn,IS,64.2539,-15.2082,30.22,47,20,20.71,few clouds
168,Kuryk,KZ,43.2,51.65,46.96,68,96,3.4,overcast clouds
169,East London,ZA,-33.0153,27.9116,68.94,77,0,12.66,clear sky
170,Walvis Bay,NA,-22.9575,14.5053,67.15,77,0,12.66,clear sky
171,Bonavista,CA,48.6499,-53.1147,32.79,91,100,23.49,overcast clouds
172,Iralaya,HN,15.0,-83.2333,81.46,62,99,8.16,overcast clouds
173,Mgandu,TZ,-5.95,34.1333,70.02,58,88,3.49,overcast clouds
174,Marystown,CA,47.1666,-55.1483,36.1,83,99,25.41,overcast clouds
175,Makat,KZ,47.6469,53.3463,35.15,61,42,10.29,scattered clouds
176,Katangli,RU,51.7102,143.2326,-0.76,99,64,5.46,broken clouds
177,Saint George,US,37.1041,-113.5841,39.79,65,0,0.0,clear sky
178,Gohad,IN,26.4261,78.4447,73.78,29,78,4.45,broken clouds
179,Port Shepstone,ZA,-30.7414,30.455,76.33,87,36,19.62,moderate rain
180,Sirjan,IR,29.452,55.6814,62.51,39,71,6.89,broken clouds
181,Vicente Guerrero,MX,19.1194,-98.1708,73.92,22,0,4.03,clear sky
182,Mayo,US,38.8876,-76.5119,51.08,43,0,13.8,clear sky
183,Taltal,CL,-25.4,-70.4833,73.72,70,3,7.61,clear sky
184,Klaksvik,FO,62.2266,-6.589,31.12,57,100,27.83,light snow
185,Amudat,UG,1.95,34.95,79.02,35,21,15.3,few clouds
186,Ahuimanu,US,21.4447,-157.8378,73.11,89,75,13.8,moderate rain
187,Radolfzell,DE,47.7333,8.9667,50.92,84,100,14.36,heavy intensity rain
188,Nueva Loja,EC,0.0847,-76.8828,86.02,70,40,4.61,scattered clouds
189,Alice Springs,AU,-23.7,133.8833,56.75,51,81,5.75,broken clouds
190,Caxito,AO,-8.5785,13.6643,78.85,74,94,6.2,overcast clouds
191,Bulgan,MN,48.8125,103.5347,39.43,49,99,5.41,overcast clouds
192,Nizhniy Chir,RU,48.3597,43.0865,43.61,68,75,14.27,light rain
193,Timra,SE,62.487,17.3257,19.08,68,100,5.75,overcast clouds
194,Kedrovyy,RU,56.1667,91.8167,25.21,92,100,11.74,overcast clouds
195,Saint-Augustin,CA,51.226,-58.6502,36.0,82,77,15.37,broken clouds
196,Tongren,CN,27.7172,109.1853,58.1,91,16,1.36,few clouds
197,Tuatapere,NZ,-46.1333,167.6833,57.85,93,100,3.51,overcast clouds
198,Lebu,CL,-37.6167,-73.65,59.76,90,99,1.39,overcast clouds
199,Fort Nelson,CA,58.8053,-122.7002,7.95,65,75,3.44,light snow
200,Friedberg,DE,48.3569,10.9846,51.21,74,20,20.71,light rain
201,Ponta Do Sol,PT,32.6667,-17.1,71.01,92,34,7.11,scattered clouds
202,Constitucion,CL,-35.3333,-72.4167,67.57,63,37,6.85,scattered clouds
203,Solnechnyy,RU,50.7214,136.6319,8.78,93,54,4.45,broken clouds
204,Saldanha,ZA,-33.0117,17.9442,68.05,83,34,7.67,scattered clouds
205,Verkhoyansk,RU,67.5447,133.385,-36.22,100,90,1.95,overcast clouds
206,Qeshm,IR,26.9581,56.2719,76.89,64,96,8.23,overcast clouds
207,Bara,NG,10.3744,10.7288,100.18,10,45,3.98,scattered clouds
208,Grindavik,IS,63.8424,-22.4338,30.15,46,75,16.11,broken clouds
209,Samur,RU,41.8253,48.486,43.41,88,95,9.46,overcast clouds
210,Omboue,GA,-1.5746,9.2618,79.86,84,95,7.52,overcast clouds
211,Guanica,PR,17.9716,-66.908,86.52,55,47,12.17,scattered clouds
212,Farah,AF,32.5,62.5,70.38,20,33,4.59,scattered clouds
213,Bidhuna,IN,26.8022,79.5088,70.11,22,10,7.27,clear sky
214,Ust-Ilimsk,RU,58.0006,102.6619,24.57,96,100,5.66,light snow
215,Bereda,ES,43.2686,-7.5406,57.15,88,100,10.74,overcast clouds
216,Saint-Francois,FR,46.4154,3.9054,58.44,68,100,11.5,overcast clouds
217,Nalut,LY,30.3333,10.85,71.44,29,1,7.94,clear sky
218,Marau,BR,-28.4492,-52.2,85.95,37,3,7.72,clear sky
219,Riesa,DE,51.3,13.3,40.05,91,100,4.94,light snow
220,Tiksi,RU,71.6872,128.8694,-20.33,93,79,2.57,broken clouds
221,Timbiqui,CO,2.7717,-77.6654,83.28,73,81,6.71,light rain
222,Padang,ID,-0.9492,100.3543,77.05,88,24,3.06,few clouds
223,Nuuk,GL,64.1835,-51.7216,32.61,74,75,12.66,broken clouds
224,Impfondo,CG,1.6381,18.0667,77.36,73,89,2.64,light rain
225,Isangel,VU,-19.55,169.2667,76.48,77,21,9.8,few clouds
226,Praya,CV,14.9215,-23.5087,88.34,27,0,19.57,clear sky
227,Odessa,UA,46.4775,30.7326,46.47,74,87,12.28,overcast clouds
228,Wilmington,US,34.2257,-77.9447,58.86,32,0,18.41,clear sky
229,Noumea,NC,-22.2763,166.4572,73.38,71,4,6.78,clear sky
230,Kalabo,ZM,-14.97,22.6814,75.43,67,100,3.49,overcast clouds
231,West Wendover,US,40.7391,-114.0733,33.01,80,20,0.0,few clouds
232,Severo-Kurilsk,RU,50.6789,156.125,27.46,82,64,6.13,broken clouds
233,Deder,ET,9.3167,41.45,65.5,46,79,3.18,broken clouds
234,Santa Rosa,PH,14.3122,121.1114,77.11,79,2,5.46,clear sky
235,Saryg-Sep,RU,51.5,95.6,25.5,95,100,3.15,light snow
236,Tondano,ID,1.3038,124.9112,68.09,93,70,1.9,broken clouds
237,Harper,LR,4.375,-7.7169,83.59,74,72,8.68,light rain
238,Talnakh,RU,69.4865,88.3972,-19.05,99,98,6.78,overcast clouds
239,Aswan,EG,24.0934,32.907,79.9,17,0,10.36,clear sky
240,Ouadda,CF,8.0777,22.4007,84.36,34,100,1.63,overcast clouds
241,Eyl,SO,7.9803,49.8164,77.32,79,8,15.41,clear sky
242,Faya,SA,18.3851,42.4509,62.71,70,64,1.19,broken clouds
243,Petropavlovsk-Kamchatskiy,RU,53.0452,158.6483,16.39,93,40,6.71,scattered clouds
244,Clyde River,CA,70.4692,-68.5914,7.03,85,20,20.71,few clouds
245,Ilulissat,GL,69.2167,-51.1,26.62,39,40,4.61,scattered clouds
246,Srednekolymsk,RU,67.45,153.6833,-31.0,100,86,4.61,overcast clouds
247,Esperance,AU,-33.8667,121.9,61.32,78,55,14.81,broken clouds
248,Hami,CN,42.8,93.45,53.82,27,24,5.06,few clouds
249,Camalu,MX,30.85,-116.0667,57.87,57,47,11.27,scattered clouds
250,Tiarei,PF,-17.5333,-149.3333,82.42,87,96,10.38,light rain
251,Kayan,MM,16.9056,96.5631,80.74,48,1,6.13,clear sky
252,Guerrero Negro,MX,27.9769,-114.0611,59.45,61,70,20.6,broken clouds
253,Jodar,ES,37.8406,-3.3526,62.46,80,99,5.53,overcast clouds
254,Adrar,MR,20.5022,-10.0711,86.23,7,0,6.73,clear sky
255,Leningradskiy,RU,69.3833,178.4167,-9.8,86,90,5.57,overcast clouds
256,Namibe,AO,-15.1961,12.1522,71.38,79,100,8.3,overcast clouds
257,Alofi,NU,-19.0595,-169.9187,73.29,94,100,10.36,moderate rain
258,Lavrentiya,RU,65.5833,-171.0,-13.47,99,90,3.31,overcast clouds
259,Actopan,MX,20.2667,-98.9333,76.57,15,0,6.4,clear sky
260,Prugy,HU,48.0833,21.25,47.25,63,100,9.95,overcast clouds
261,Pitimbu,BR,-7.4706,-34.8086,86.59,70,29,13.78,scattered clouds
262,Camacha,PT,33.0833,-16.3333,67.42,73,20,12.66,few clouds
263,Flinders,AU,-34.5833,150.8552,62.19,72,0,1.99,clear sky
264,Hovd,MN,48.0056,91.6419,47.32,33,91,14.9,overcast clouds
265,French Harbor,HN,16.35,-86.4333,84.2,61,20,17.27,few clouds
266,Grand Gaube,MU,-20.0064,57.6608,77.4,74,47,3.0,scattered clouds
267,Muros,ES,42.7762,-9.0603,62.1,82,100,16.42,overcast clouds
268,Yulara,AU,-25.2406,130.9889,61.61,40,0,10.6,clear sky
269,Iracoubo,GF,5.4802,-53.2011,80.47,75,92,10.71,overcast clouds
270,Alcazar De San Juan,ES,39.3901,-3.2083,58.24,71,100,14.81,overcast clouds
271,Newport,GB,51.5877,-2.9984,36.45,92,100,14.2,light snow
272,Mackenzie,CA,55.2999,-123.1698,16.02,48,0,8.05,clear sky
273,Sitka,US,57.0531,-135.33,26.49,36,0,4.61,clear sky
274,Charleston,US,32.7766,-79.9309,65.01,23,0,8.05,clear sky
275,Cockburn Town,TC,21.4612,-71.1419,80.56,57,40,9.22,scattered clouds
276,Lamu,KE,-2.2717,40.902,80.82,86,31,16.02,scattered clouds
277,Kavieng,PG,-2.5744,150.7967,79.77,78,100,2.86,overcast clouds
278,Svetlogorsk,BY,52.6333,29.7333,30.09,76,52,8.3,broken clouds
279,Kaka,TM,37.3482,59.6143,57.81,59,100,7.94,overcast clouds
280,Lagoa,PT,39.05,-27.9833,59.54,82,37,35.21,scattered clouds
281,Am Timan,TD,11.0297,20.2827,95.02,16,61,3.36,broken clouds
282,Konevo,RU,62.1215,39.3192,22.53,93,100,10.89,light snow
283,Bosanska Gradiska,BA,45.1411,17.25,53.85,72,99,5.39,overcast clouds
284,Sumbuya,SL,7.6467,-11.9611,89.94,42,64,10.2,broken clouds
285,Jasdan,IN,22.0333,71.2,82.09,22,25,4.0,scattered clouds
286,Florence,IT,43.7667,11.25,57.34,78,100,8.05,overcast clouds
287,Novoagansk,RU,61.9449,76.6625,-18.98,99,51,5.57,broken clouds
288,Fayaoue,NC,-20.65,166.5333,79.11,60,3,12.17,clear sky
289,Verkhnevilyuysk,RU,63.4453,120.3167,3.15,96,100,8.9,light snow
290,Uray,RU,60.1247,64.7758,-3.15,96,37,7.11,scattered clouds
291,Venice,US,27.0998,-82.4543,87.12,63,40,5.01,scattered clouds
292,Panelas,BR,-8.6636,-36.0058,84.09,43,62,12.91,broken clouds
293,La Ronge,CA,55.1001,-105.2842,-3.75,59,20,8.05,few clouds
294,Suruc,TR,36.9761,38.425,53.44,62,100,4.32,overcast clouds
295,Bodden Town,KY,19.2833,-81.25,84.0,67,20,10.36,few clouds
296,Chuy,UY,-33.6971,-53.4616,84.22,58,81,12.26,broken clouds
297,Abha,SA,18.2164,42.5053,62.42,55,0,9.22,clear sky
298,Ternate,ID,0.8,127.4,79.41,83,15,5.03,few clouds
299,Prince George,CA,53.9166,-122.753,20.64,63,40,16.11,scattered clouds
300,Ponta Delgada,PT,37.7333,-25.6667,63.32,88,40,17.27,light rain
301,Mnogovershinnyy,RU,53.9353,139.9242,0.05,95,73,3.62,broken clouds
302,Husavik,IS,66.0449,-17.3389,21.43,67,99,5.73,overcast clouds
303,Gat,IL,31.61,34.7642,59.81,100,3,4.81,clear sky
304,Broome,US,42.2506,-75.833,33.62,74,100,17.27,overcast clouds
305,Maningrida,AU,-12.0667,134.2667,77.67,90,98,8.28,overcast clouds
306,Ixtapa,MX,20.7,-105.2,86.85,22,0,7.07,clear sky
307,Halifax,CA,44.6453,-63.5724,39.51,75,100,19.57,overcast clouds
308,Kangaatsiaq,GL,68.3065,-53.4641,10.99,92,75,6.26,broken clouds
309,Nadbai,IN,27.2333,77.2,68.79,46,94,4.0,overcast clouds
310,Trinidad,BO,-14.8333,-64.9,85.98,74,100,5.75,overcast clouds
311,Khani,GE,41.9563,42.9566,44.17,61,91,4.76,overcast clouds
312,Bahia Blanca,AR,-38.7196,-62.2724,79.63,39,100,1.25,overcast clouds
313,Baruun-Urt,MN,46.6806,113.2792,34.05,39,100,6.73,overcast clouds
314,Xunchang,CN,28.4543,104.715,65.07,71,100,0.78,overcast clouds
315,Colac,AU,-38.3333,143.5833,51.84,86,95,8.28,overcast clouds
316,Georgetown,MY,5.4112,100.3354,82.33,89,20,2.3,few clouds
317,Punta De Piedra,VE,7.6176,-71.4916,93.97,33,100,1.34,overcast clouds
318,Jakar,BT,27.5492,90.7525,44.67,82,94,1.36,overcast clouds
319,Ghatsila,IN,22.6,86.4833,77.54,40,53,3.2,broken clouds
320,Menongue,AO,-14.6585,17.691,67.6,89,98,1.39,moderate rain
321,Castanos,MX,26.7833,-101.4167,74.34,58,45,6.33,scattered clouds
322,Oskarshamn,SE,57.2645,16.4484,22.98,70,12,7.45,few clouds
323,Jiangkou,CN,25.4872,119.1986,61.2,67,24,2.64,few clouds
324,Chifeng,CN,42.2683,118.9636,41.02,32,11,6.4,few clouds
325,Pisco,PE,-13.7,-76.2167,79.02,78,0,11.5,clear sky
326,Zilupe,LV,56.3862,28.1217,27.88,81,99,15.77,overcast clouds
327,Maragogi,BR,-9.0122,-35.2225,83.23,68,33,11.05,scattered clouds
328,The Pas,CA,53.8251,-101.2541,-2.18,65,0,6.91,clear sky
329,Camocim,BR,-2.9022,-40.8411,86.04,67,24,14.63,few clouds
330,Knokke-Heist,BE,51.3333,3.3333,36.45,80,100,13.94,snow
331,Oranjemund,NA,-28.55,16.4333,64.53,87,0,7.29,clear sky
332,Serenje,ZM,-13.2325,30.2352,64.42,95,100,0.67,light rain
333,Kodinar,IN,20.7903,70.7031,78.03,55,14,7.14,few clouds
334,Kloulklubed,PW,7.0419,134.2556,81.03,81,19,12.06,few clouds
335,Yakeshi,CN,49.2833,120.7333,24.15,94,99,9.51,overcast clouds
336,Yaransk,RU,57.3033,47.8861,16.29,95,93,8.08,overcast clouds
337,Meulaboh,ID,4.1363,96.1285,76.35,87,71,1.45,broken clouds
338,Fairbanks,US,64.8378,-147.7164,28.81,89,75,0.0,broken clouds
339,Dingle,PH,10.9995,122.6711,75.81,93,8,6.73,clear sky
340,Pasni,PK,25.2631,63.471,75.29,71,15,6.67,few clouds
341,Avera,US,33.194,-82.5271,64.9,20,12,9.73,few clouds
342,Miandoab,IR,36.9694,46.1027,46.78,82,94,10.25,light rain
343,Olga,RU,43.7444,135.2892,22.48,87,9,4.41,clear sky
344,Ust-Ordynskiy,RU,52.805,104.7508,15.1,96,89,2.95,overcast clouds
345,Coihaique,CL,-45.5752,-72.0662,56.01,62,75,9.22,moderate rain
346,Ak-Dovurak,RU,51.1833,90.6,31.64,83,100,3.53,overcast clouds
347,Tura,IN,25.5198,90.2201,69.58,26,1,2.48,clear sky
348,Sayat,TM,38.7839,63.8803,51.67,46,92,7.7,overcast clouds
349,Souillac,MU,-20.5167,57.5167,77.38,73,40,4.61,scattered clouds
350,Morshansk,RU,53.4435,41.8107,33.98,97,100,13.62,overcast clouds
351,Oxford,GB,51.7522,-1.256,36.18,97,100,12.66,mist
352,Petatlan,MX,17.5167,-101.2667,87.53,43,1,7.76,clear sky
353,Mecca,SA,21.4267,39.8261,78.64,58,1,7.54,clear sky
354,Bathsheba,BB,13.2167,-59.5167,83.01,65,20,12.66,few clouds
355,Shimoda,JP,34.6667,138.95,56.1,76,60,9.71,broken clouds
356,Luanda,AO,-8.8368,13.2343,78.78,75,85,12.06,overcast clouds
357,Norton Shores,US,43.1689,-86.2639,45.99,37,75,12.66,broken clouds
358,High Prairie,CA,55.4334,-116.4858,8.69,81,24,7.63,few clouds
359,Ancud,CL,-41.8697,-73.8203,58.41,67,99,9.6,overcast clouds
360,Namatanai,PG,-3.6667,152.4333,77.63,84,100,3.11,overcast clouds
361,Puri,IN,19.8,85.85,77.52,75,95,6.2,overcast clouds
362,Ambilobe,MG,-13.2,49.05,76.71,87,74,4.63,broken clouds
363,Hasaki,JP,35.7333,140.8333,48.22,72,77,8.57,broken clouds
364,Akcakoca,TR,41.0866,31.1162,54.25,80,96,5.82,overcast clouds
365,Heihe,CN,50.2441,127.4902,23.58,92,100,5.77,overcast clouds
366,Lufilufi,WS,-13.8745,-171.5986,80.38,74,100,20.22,light rain
367,Maravilha,BR,-26.7608,-53.1725,86.81,53,50,5.03,scattered clouds
368,Merritt Island,US,28.5392,-80.672,84.25,65,12,11.01,few clouds
369,Yatou,CN,37.15,122.3833,40.89,89,66,4.16,broken clouds
370,Bethel,US,41.3712,-73.414,45.19,60,4,3.0,clear sky
371,Rincon,US,32.296,-81.2354,64.9,23,20,4.61,smoke
372,Goderich,CA,43.7501,-81.7165,34.12,55,29,16.11,scattered clouds
373,Tual,ID,-5.6667,132.75,82.38,80,59,13.31,broken clouds
374,Sorong,ID,-0.8833,131.25,80.1,81,86,6.08,overcast clouds
375,Sibolga,ID,1.7427,98.7792,75.27,90,59,3.38,light rain
376,Diapaga,BF,12.0708,1.7889,98.42,7,72,4.9,broken clouds
377,Afua,BR,-0.1567,-50.3867,80.73,83,100,6.89,overcast clouds
378,Malangali,TZ,-8.5667,34.85,65.71,87,99,3.89,overcast clouds
379,Cartagena,CO,10.3997,-75.5144,85.62,66,75,16.11,broken clouds
380,Itum-Kale,RU,42.7356,45.5758,42.89,53,89,5.37,overcast clouds
381,Kharod,IN,21.75,82.5667,76.23,24,26,4.38,scattered clouds
382,Cap Malheureux,MU,-19.9842,57.6142,76.46,75,45,3.0,scattered clouds
383,Luba,GQ,3.4568,8.5547,84.09,82,99,11.52,overcast clouds
384,Bastia,FR,42.6667,9.3333,62.4,82,0,2.3,clear sky
385,Imamoglu,TR,37.2651,35.6572,58.71,79,100,1.32,overcast clouds
386,Port Macquarie,AU,-31.4333,152.9167,63.9,73,44,7.74,scattered clouds
387,Lichuan,CN,30.3,108.85,49.51,86,26,2.1,scattered clouds
388,Nordby,DK,55.446,8.3979,37.26,69,20,2.3,few clouds
389,Taksimo,RU,56.3444,114.8794,0.16,94,94,1.16,overcast clouds
390,Tekirdag,TR,40.978,27.5085,52.95,83,91,7.63,overcast clouds
391,Yuzhnyy,RU,53.2542,83.6936,25.18,80,40,22.37,scattered clouds
392,Kalmunai,LK,7.4167,81.8167,77.92,84,7,8.23,clear sky
393,Rosarito,MX,32.3333,-117.0333,58.24,62,73,11.3,broken clouds
394,Takhtamygda,RU,54.1,123.5667,19.45,96,100,4.56,light snow
395,Maumere,ID,-8.6199,122.2111,78.76,83,100,4.59,overcast clouds
396,Fruitvale,US,39.0817,-108.4968,44.91,45,0,3.44,clear sky
397,Priargunsk,RU,50.3691,119.1012,4.86,98,95,3.2,overcast clouds
398,Haines Junction,CA,60.7522,-137.5108,-11.25,77,98,0.0,snow
399,Sakakah,SA,29.9697,40.2064,69.37,31,0,15.26,clear sky
400,Aleksandrovsk-Sakhalinskiy,RU,50.8975,142.1561,0.48,99,79,2.77,broken clouds
401,Innisfail,AU,-17.5333,146.0333,76.17,93,48,3.24,scattered clouds
402,Ust-Kuyga,RU,70.0167,135.6,-34.49,100,98,4.14,overcast clouds
403,Akyab,MM,20.15,92.9,75.25,60,60,5.84,broken clouds
404,San Quintin,MX,30.4833,-115.95,57.6,58,59,15.3,broken clouds
405,Tagusao,PH,9.1924,117.8141,78.64,83,42,8.01,scattered clouds
406,Cayenne,GF,4.9333,-52.3333,86.04,62,75,12.66,broken clouds
407,Carutapera,BR,-1.195,-46.02,82.04,77,91,7.43,overcast clouds
408,Nabire,ID,-3.3667,135.4833,74.26,88,12,4.25,few clouds
409,Portland,US,45.5234,-122.6762,37.33,95,100,6.91,moderate rain
410,Vestmanna,FO,62.1564,-7.1664,25.72,93,40,3.44,light snow
411,Gongzhuling,CN,43.5008,124.8198,35.42,48,98,5.64,overcast clouds
412,Margate,GB,51.3813,1.3862,39.9,91,100,4.0,overcast clouds
413,Guliston,UZ,40.4897,68.7842,53.33,70,100,6.26,overcast clouds
414,Nouadhibou,MR,20.931,-17.0347,78.78,47,0,14.97,clear sky
415,Bam,IR,29.106,58.357,73.83,23,40,7.52,scattered clouds
416,Lithakia,GR,37.7167,20.8333,54.68,88,40,2.3,scattered clouds
417,Guaruja,BR,-23.9931,-46.2564,87.66,62,0,14.0,clear sky
418,Te Anau,NZ,-45.4167,167.7167,58.68,94,100,2.26,overcast clouds
419,Koumac,NC,-20.5667,164.2833,75.02,73,6,4.16,clear sky
420,Komsomolskiy,UZ,40.4272,71.7189,54.32,54,73,6.91,broken clouds
421,Pacific Grove,US,36.6177,-121.9166,49.37,89,100,5.75,mist
422,Santa Cruz,BO,-17.8,-63.1667,77.05,88,75,13.8,broken clouds
423,Aksay,RU,47.26,39.87,52.25,61,82,5.01,broken clouds
424,Mocuba,MZ,-16.8392,36.9856,77.43,73,100,1.95,overcast clouds
425,Henties Bay,NA,-22.116,14.2845,64.74,80,1,11.21,clear sky
426,Waspan,NI,14.7419,-83.9717,88.47,44,99,4.07,overcast clouds
427,Talcahuano,CL,-36.7167,-73.1167,65.88,77,75,12.66,broken clouds
428,Zhigansk,RU,66.7697,123.3711,-22.25,98,64,6.82,broken clouds
429,Ilam,NP,26.9167,87.9167,60.75,38,20,6.04,few clouds
430,Mrakovo,RU,52.7161,56.6244,30.61,97,100,14.65,snow
431,Manaus,BR,-3.1019,-60.025,75.69,94,75,6.91,moderate rain
432,Elko,US,41.0002,-115.5012,29.05,68,99,3.0,overcast clouds
433,Saquena,PE,-4.6667,-73.5167,87.57,65,93,2.71,overcast clouds
434,Codrington,AU,-38.2667,141.9667,54.95,75,92,10.07,overcast clouds
435,Nicoya,CR,10.1483,-85.452,94.48,34,92,5.79,overcast clouds
436,Tambopata,PE,-12.7333,-69.1833,89.49,58,75,9.22,broken clouds
437,Kinlochleven,GB,56.7115,-4.9661,37.29,54,19,3.78,few clouds
438,Along,IN,28.1667,94.7667,60.3,67,4,1.99,clear sky
439,Juazeiro,BR,-9.4117,-40.4986,95.18,28,20,4.61,few clouds
440,Narsingdi,BD,23.9208,90.7181,78.82,25,77,7.43,broken clouds
441,Hollola,FI,61.05,25.4333,18.05,89,100,13.4,overcast clouds
442,Vanavara,RU,60.34,102.2797,11.55,97,100,3.36,overcast clouds
443,Salinopolis,BR,-0.6136,-47.3561,81.3,78,88,9.51,overcast clouds
444,Boyolangu,ID,-8.1181,111.8935,74.59,90,100,0.34,overcast clouds
445,Paamiut,GL,61.994,-49.6678,26.17,74,3,11.36,clear sky
446,Tefe,BR,-3.3542,-64.7114,91.51,62,40,3.44,scattered clouds
447,Luorong,CN,24.4058,109.6086,66.7,67,76,4.72,broken clouds
448,Marrakesh,MA,31.6315,-8.0083,80.67,36,20,2.3,few clouds
449,Karaton,ID,-6.3424,106.1045,72.43,94,38,2.33,scattered clouds
450,Araouane,ML,18.9048,-3.5265,86.43,6,48,10.04,scattered clouds
451,Ouesso,CG,1.6136,16.0517,76.05,77,99,5.03,overcast clouds
452,Homer,US,59.6425,-151.5483,26.49,93,0,3.44,clear sky
453,Dwarka,IN,22.2394,68.9678,75.49,61,0,8.46,clear sky
454,Tatarsk,RU,55.219,75.9828,8.53,98,81,5.41,broken clouds
455,Buraydah,SA,26.326,43.975,68.45,58,52,13.67,broken clouds
456,Hacari,CO,8.3233,-73.1489,74.01,73,100,2.46,overcast clouds
457,Fortuna,US,40.5982,-124.1573,45.36,94,20,12.66,few clouds
458,Bella Vista,US,36.4295,-94.2316,54.28,92,100,6.91,mist
459,Tupik,RU,54.4253,119.9327,-0.83,100,97,2.68,overcast clouds
460,Kavali,IN,14.9167,79.9833,74.16,72,4,8.39,clear sky
461,Itaituba,BR,-4.2761,-55.9836,82.56,83,75,11.5,heavy intensity rain
462,Guayaramerin,BO,-10.8368,-65.3614,89.65,55,40,9.22,scattered clouds
463,Batemans Bay,AU,-35.7167,150.1833,58.1,73,1,5.32,clear sky
464,Iqaluit,CA,63.7506,-68.5145,20.93,86,20,18.41,few clouds
465,Saint-Leu,RE,-21.15,55.2833,77.86,97,77,6.04,broken clouds
466,Kieta,PG,-6.2167,155.6333,78.8,86,100,2.75,moderate rain
467,Poronaysk,RU,49.2167,143.1167,2.52,94,14,4.59,few clouds
468,Bud,US,39.447,-86.1758,48.2,38,100,11.97,overcast clouds
469,Kushima,JP,31.4583,131.2333,54.03,79,87,2.01,overcast clouds
470,Pangkalanbuun,ID,-2.6833,111.6167,73.47,97,80,0.74,broken clouds
471,Sao Joao Da Barra,BR,-21.6403,-41.0511,87.89,80,99,11.9,overcast clouds
472,Kailua,US,21.4022,-157.7394,73.38,88,75,23.02,drizzle
473,Saint-Paul,RE,-21.0096,55.2707,78.91,97,86,0.4,overcast clouds
474,Port Hedland,AU,-20.3167,118.5667,82.45,89,40,5.75,scattered clouds
475,Hibbing,US,47.4272,-92.9377,33.57,18,100,9.28,snow
476,Megion,RU,61.0296,76.1136,-15.99,99,42,8.01,scattered clouds
477,Sergeyevka,KZ,53.88,67.4158,18.66,88,71,13.24,broken clouds
478,Necochea,AR,-38.5473,-58.7368,74.7,60,9,11.77,clear sky
479,Ardakan,IR,32.31,54.0175,66.0,47,100,5.48,overcast clouds
480,Ipswich,GB,52.0592,1.1555,37.02,85,100,10.36,snow
481,Yelatma,RU,54.9675,41.7508,31.91,94,100,13.91,overcast clouds
482,Nome,US,64.5011,-165.4064,16.16,92,100,18.41,mist
483,Xam Nua,LA,20.4197,104.0439,62.06,91,70,2.66,broken clouds
484,Mandurah,AU,-32.55,115.7,70.99,76,34,3.96,scattered clouds
485,Topeka,US,39.0483,-95.678,44.89,92,100,1.99,overcast clouds
486,Iguape,BR,-24.7081,-47.5553,86.45,61,18,10.0,few clouds
487,Burgeo,CA,47.6167,-57.6152,36.9,77,53,24.4,broken clouds
488,Kathmandu,NP,27.7167,85.3167,54.84,74,20,0.0,few clouds
489,Bubaque,GW,11.2833,-15.8333,77.54,76,77,19.01,broken clouds
490,Karoi,ZW,-16.8099,29.6925,66.36,90,100,4.65,overcast clouds
491,Praia Da Vitoria,PT,38.7333,-27.0667,62.85,88,40,27.29,scattered clouds
492,Koulikoro,ML,14.0,-7.75,92.46,5,62,10.85,broken clouds
493,Broken Hill,AU,-31.95,141.4333,55.71,64,0,14.07,clear sky
494,Roma,US,43.2128,-75.4557,33.39,64,100,16.11,overcast clouds
495,Sorland,NO,67.667,12.6934,22.86,49,22,1.05,few clouds
496,Koutsouras,GR,35.0339,25.9469,62.11,72,5,2.98,clear sky
497,Saint Anthony,US,45.0205,-93.218,35.92,78,100,9.22,light snow
498,Lashio,MM,22.9333,97.75,62.89,41,87,2.08,overcast clouds
499,Puerto Escondido,MX,15.85,-97.0667,85.03,70,0,9.22,clear sky
500,Weston,US,26.1004,-80.3998,90.0,53,75,11.5,broken clouds
501,Laguna De Perlas,NI,12.3429,-83.6712,82.49,80,95,9.75,overcast clouds
502,Gebre Guracha,ET,9.8,38.4,62.53,50,83,3.04,light rain
503,Honningsvag,NO,70.9821,25.9704,22.75,74,75,18.41,light snow
504,Pascagoula,US,30.3658,-88.5561,84.42,73,20,10.36,few clouds
505,Quimper,FR,48.0,-4.1,52.36,93,100,14.97,moderate rain
506,San Cristobal,VE,7.7669,-72.225,69.98,52,100,2.57,overcast clouds
507,Beloha,MG,-25.1667,45.05,75.02,90,75,11.18,broken clouds
508,Ambon,ID,-3.6954,128.1814,79.23,14,40,3.44,scattered clouds
509,Rawson,AR,-43.3002,-65.1023,77.63,30,99,15.5,overcast clouds
510,Turukhansk,RU,65.8167,87.9833,-10.82,99,100,3.29,overcast clouds
511,Sembe,CG,1.6481,14.5806,77.2,74,98,3.56,overcast clouds
512,Kudahuvadhoo,MV,2.6708,72.8944,82.44,76,5,15.55,clear sky
513,Sao Felix Do Xingu,BR,-6.6447,-51.995,77.41,86,100,3.49,overcast clouds
514,Rio Grande,BR,-32.035,-52.0986,93.31,62,91,4.36,overcast clouds
515,Emerald,AU,-23.5333,148.1667,75.16,86,100,6.51,overcast clouds
516,Aksu,CN,41.1231,80.2644,52.72,35,100,3.69,overcast clouds
517,Ornskoldsvik,SE,63.2909,18.7153,13.15,79,0,5.75,clear sky
518,Acajutla,SV,13.5928,-89.8275,82.99,57,99,7.34,overcast clouds
519,Abu Dhabi,AE,24.4667,54.3667,78.94,67,0,3.44,clear sky
520,Udachnyy,RU,66.4167,112.4,-1.55,76,100,5.91,overcast clouds
521,Itanhaem,BR,-24.1831,-46.7889,82.26,72,54,5.41,broken clouds
522,Gold Coast,AU,-28.0,153.4333,78.01,94,100,4.61,light rain
523,Synevyr,UA,48.4875,23.6258,34.65,87,99,7.27,overcast clouds
524,Caravelas,BR,-17.7125,-39.2481,84.76,60,29,8.39,scattered clouds
525,Ville-Marie,CA,47.3335,-79.433,24.67,87,100,12.26,overcast clouds
526,Lukovetskiy,RU,64.2956,41.9211,8.04,99,96,3.85,overcast clouds
527,Saurimo,AO,-9.6608,20.3916,67.55,91,86,3.49,overcast clouds
528,Farafenni,GM,13.5667,-15.6,105.26,6,0,11.39,clear sky
529,New Kensington,US,40.5698,-79.7648,45.28,45,70,3.0,broken clouds
530,Tilichiki,RU,60.4667,166.1,9.77,95,100,8.25,overcast clouds
531,Sovetskiy,RU,61.3614,63.5842,-6.81,95,77,5.5,broken clouds
532,Flin Flon,CA,54.7682,-101.865,1.24,60,20,0.0,few clouds
533,Baghdad,IQ,33.3406,44.4009,66.11,94,100,11.5,thunderstorm
534,Port Blair,IN,11.6667,92.75,82.44,74,40,4.61,mist
535,Mbandaka,CD,0.0487,18.2603,76.15,82,99,4.29,overcast clouds
536,Great Yarmouth,GB,52.6083,1.7305,37.02,78,100,18.28,overcast clouds
537,Kovur,IN,14.4833,79.9833,72.81,74,10,7.14,clear sky
538,Villa Guerrero,MX,18.8667,-99.65,76.62,23,0,5.08,clear sky
539,Kavaratti,IN,10.5669,72.642,81.36,68,32,4.25,scattered clouds
540,Dunedin,NZ,-45.8742,170.5036,60.71,92,100,4.61,moderate rain
541,Miravci,MK,41.3078,22.435,51.03,71,82,3.85,broken clouds
542,Shiyan,CN,32.6475,110.7781,63.36,23,1,4.18,clear sky
543,Green Valley,US,31.8543,-110.9937,72.25,27,95,9.73,overcast clouds
544,Najran,SA,17.4924,44.1277,81.25,18,39,3.49,scattered clouds
545,Deoli,IN,25.75,75.3833,68.68,44,62,5.91,broken clouds
546,Coquimbo,CL,-29.9533,-71.3436,71.33,68,0,13.8,clear sky
547,Honiara,SB,-9.4333,159.95,77.54,88,99,3.2,overcast clouds
548,Asau,RO,46.4333,26.4,49.28,69,99,10.78,overcast clouds
549,Itarema,BR,-2.9248,-39.9167,85.19,67,22,16.22,few clouds
550,Atar,MR,20.5169,-13.0499,91.51,6,0,13.73,clear sky
551,La Sarre,CA,48.8002,-79.1996,23.7,87,100,13.49,overcast clouds
552,Ituiutaba,BR,-18.9689,-49.465,80.71,67,97,8.32,overcast clouds
553,Srandakan,ID,-7.9386,110.2506,76.01,88,84,2.44,broken clouds
554,Chimoio,MZ,-19.1164,33.4833,66.11,85,86,3.62,overcast clouds
555,Mtama,TZ,-10.3,39.3667,73.26,97,31,3.62,scattered clouds
556,Ushtobe,KZ,45.2514,77.9838,38.57,96,100,8.01,overcast clouds
557,Fethiye,TR,36.6217,29.1164,55.27,78,9,1.92,clear sky
558,Aginskoye,RU,51.1,114.53,22.15,62,100,2.64,overcast clouds
559,East Foothills,US,37.3811,-121.8175,50.23,83,100,5.75,overcast clouds
560,Olafsvik,IS,64.8945,-23.7142,26.13,58,66,18.1,broken clouds
561,Abu Zabad,SD,12.35,29.25,89.38,15,90,16.67,overcast clouds
562,Carballo,ES,43.213,-8.691,61.02,82,100,12.15,overcast clouds
563,Aksha,RU,50.2814,113.2867,26.47,53,100,1.92,overcast clouds
564,Vondrozo,MG,-22.8167,47.2833,68.16,100,93,0.83,moderate rain
565,Lewiston,US,44.1003,-70.2148,45.79,54,100,13.8,overcast clouds
566,Hojai,IN,26.0,92.8667,70.38,34,73,2.21,broken clouds
567,Natchitoches,US,31.7668,-93.1335,83.25,57,100,5.75,overcast clouds
568,Ulaanbaatar,MN,47.9077,106.8832,28.53,80,75,4.47,broken clouds
569,Burnie,AU,-41.0667,145.9167,49.44,88,67,11.36,broken clouds
570,Sungaipenuh,ID,-2.0833,101.3833,66.45,96,96,2.84,overcast clouds
571,Machico,PT,32.7,-16.7667,71.01,87,40,14.97,light rain
572,Tank,PK,32.2217,70.3793,73.58,25,1,0.89,clear sky
573,Mlonggo,ID,-6.5333,110.7,76.91,85,85,2.84,overcast clouds
574,Champerico,GT,14.3,-91.9167,85.3,58,38,10.89,scattered clouds
575,Plouzane,FR,48.3833,-4.6167,53.92,87,100,20.71,overcast clouds
576,Wloszczowa,PL,50.8526,19.9659,40.17,97,100,6.46,overcast clouds
577,Brigham City,US,41.5102,-112.0155,36.41,75,100,11.99,light snow
578,Boguchany,RU,58.3814,97.4531,23.36,96,100,7.67,light snow
579,Andenes,NO,69.3143,16.1194,21.92,93,100,9.22,light snow
580,Soubre,CI,5.7856,-6.6083,88.32,51,86,4.81,overcast clouds
581,Conceicao Do Araguaia,BR,-8.2578,-49.2647,80.91,82,100,2.46,overcast clouds
582,Sistranda,NO,63.7256,8.834,15.76,62,100,15.61,overcast clouds
583,Kaduna,NG,10.5222,7.4383,90.45,9,63,5.59,broken clouds
584,Colombo,LK,6.9319,79.8478,80.55,81,26,7.9,scattered clouds
585,Minggang,CN,32.4586,114.0486,62.13,26,2,5.19,clear sky
586,Xai-Xai,MZ,-25.0519,33.6442,75.04,87,12,6.8,few clouds
587,Zhigalovo,RU,54.8097,105.1578,25.41,96,100,5.88,light snow
588,Mount Isa,AU,-20.7333,139.5,67.77,100,75,20.71,broken clouds
589,Moba,CN,33.2288,105.0179,48.42,55,94,2.73,overcast clouds
590,Atambua,ID,-9.1061,124.8925,73.11,90,94,0.83,overcast clouds
591,Benghazi,LY,32.1167,20.0667,60.96,69,1,11.88,clear sky
592,Puerto Madryn,AR,-42.7692,-65.0385,77.63,35,93,14.72,overcast clouds
593,Mama,RU,58.3106,112.8986,8.76,100,100,4.47,overcast clouds
594,Port-Gentil,GA,-0.7193,8.7815,82.36,83,40,11.5,scattered clouds
595,Ovalle,CL,-30.5983,-71.2003,83.82,37,0,8.84,clear sky
596,Pochutla,MX,15.7432,-96.4661,88.83,44,0,9.44,clear sky
597,Dali,CN,25.7,100.1833,52.5,45,71,4.12,broken clouds
598,Pemangkat,ID,1.1667,108.9667,76.53,89,21,5.59,few clouds
599,Ilo,PE,-17.6394,-71.3375,81.46,69,0,13.8,clear sky
600,Yaan,NG,7.3833,8.5667,95.85,28,97,5.37,overcast clouds
601,Hastings,GB,50.8552,0.5729,40.75,61,100,7.54,overcast clouds
602,Okha,RU,53.5739,142.9478,-7.19,99,12,5.06,few clouds
603,Gravdal,NO,68.1214,13.5031,17.49,73,0,3.44,clear sky
604,Agbor,NG,6.2518,6.1934,82.6,73,70,7.7,light rain
605,Hamilton,US,39.1834,-84.5333,48.63,41,0,12.66,clear sky
606,Aklavik,CA,68.2191,-135.0107,-7.31,91,82,21.79,broken clouds
607,Neuquen,AR,-38.9516,-68.0591,85.78,16,20,21.68,few clouds
608,Chapais,CA,49.7834,-74.8492,20.98,91,100,9.71,overcast clouds
609,Murwillumbah,AU,-28.3167,153.4,77.13,94,100,4.61,light rain
610,Bograd,RU,54.2344,90.8328,25.68,69,91,11.77,overcast clouds
611,Havre-Saint-Pierre,CA,50.2334,-63.5986,36.27,76,98,10.89,overcast clouds
612,Bemidji,US,47.4736,-94.8803,31.89,91,100,10.36,light snow
613,Siocon,PH,7.7061,122.1353,77.07,87,4,7.29,clear sky
614,Vangaindrano,MG,-23.35,47.6,75.7,93,85,5.97,moderate rain
615,Ambulu,ID,-8.345,113.6058,74.64,91,86,2.24,overcast clouds
616,Pontianak,ID,-0.0333,109.3333,76.98,94,40,2.3,thunderstorm
617,Lima,PE,-12.0432,-77.0282,79.05,65,0,12.66,clear sky
618,Shu,KZ,43.5983,73.7614,41.07,89,100,1.21,overcast clouds
619,Mitsamiouli,KM,-11.3847,43.2844,83.26,71,94,9.55,overcast clouds
620,Tezu,IN,27.9167,96.1667,69.42,32,31,4.88,scattered clouds
621,Leon,MX,21.1167,-101.6667,80.82,42,0,3.02,clear sky
622,Aquiraz,BR,-3.9014,-38.3911,87.89,80,48,11.68,scattered clouds
623,Katol,IN,21.2667,78.5833,76.96,23,39,4.83,scattered clouds
624,San Miguel,SV,13.4833,-88.1833,96.98,25,98,2.62,overcast clouds
625,Sola,VU,-13.8833,167.55,80.87,76,100,4.21,overcast clouds
626,Edremit,TR,39.5961,27.0244,53.35,94,75,3.44,broken clouds
627,Zeya,RU,53.75,127.2667,17.85,95,100,9.08,snow
628,Primorsk,UA,46.7348,36.3443,44.51,87,71,11.81,broken clouds
629,Bairiki,KI,1.3292,172.9752,80.6,78,40,4.61,scattered clouds
630,Juba,SS,4.8517,31.5825,91.24,27,81,4.97,broken clouds
631,Shiraz,IR,29.6036,52.5388,62.04,42,75,4.61,haze
632,Obo,CF,5.3998,26.4869,82.53,39,84,4.16,broken clouds
633,Ocos,GT,14.5094,-92.1933,89.78,61,57,10.69,broken clouds
634,Harrisburg,US,40.2737,-76.8844,47.57,50,0,12.66,clear sky
635,Hay River,CA,60.8156,-115.7999,3.54,95,100,2.53,overcast clouds
636,Dhidhdhoo,MV,6.8833,73.1,81.05,76,11,7.74,few clouds
637,Normal,US,40.5142,-88.9906,47.03,41,75,23.02,broken clouds
638,Okhotsk,RU,59.3833,143.3,-13.52,98,84,6.76,broken clouds
639,Hirara,JP,24.8,125.2833,69.33,68,87,12.26,overcast clouds
640,Chara,RU,56.9064,118.2631,1.78,80,57,2.91,broken clouds
641,Salantai,LT,56.0667,21.5667,31.5,67,76,15.19,broken clouds
642,Miramar,US,25.9873,-80.2323,90.0,54,75,13.8,broken clouds
643,Opuwo,NA,-18.0607,13.84,76.35,31,56,12.19,broken clouds
644,Taketa,JP,32.9652,131.3785,46.76,82,94,4.83,overcast clouds
645,Ise,JP,34.4833,136.7,51.12,62,36,4.59,scattered clouds
646,Pringsewu,ID,-5.3582,104.9744,72.66,97,48,1.77,scattered clouds
647,Akdepe,TM,42.0551,59.3788,48.9,52,94,12.71,overcast clouds
648,Bom Jesus,BR,-9.0744,-44.3586,101.01,21,62,7.65,broken clouds
649,Machilipatnam,IN,16.1667,81.1333,76.68,73,5,5.82,clear sky
650,San Juan,AR,-31.5375,-68.5364,94.03,26,0,12.86,clear sky
651,Changji,CN,44.0167,87.3167,36.39,93,75,4.47,mist
652,Ormara,PK,25.2088,64.6357,75.65,72,0,8.52,clear sky
653,Yumen,CN,40.2833,97.2,47.1,22,0,5.77,clear sky
654,Saint-Paul-Les-Dax,FR,43.7272,-1.0516,68.52,73,100,11.5,overcast clouds
655,Mogoytuy,RU,51.2833,114.9167,23.11,57,100,3.42,overcast clouds
656,Luancheng,CN,37.8792,114.6517,56.28,27,0,1.92,clear sky
657,Kenai,US,60.5544,-151.2583,22.14,81,0,4.61,clear sky
658,Praia,CV,14.9215,-23.5087,88.34,27,0,19.57,clear sky
659,Acapulco,MX,16.8634,-99.8901,84.02,65,0,9.22,clear sky
660,Karatau,KZ,43.1667,70.4667,39.79,92,100,5.64,overcast clouds
661,College,US,64.8569,-147.8028,28.8,80,75,0.0,shower rain
662,Naze,JP,28.3667,129.4833,61.93,62,16,9.55,few clouds
663,Mendoza,AR,-32.8908,-68.8272,89.02,31,1,10.54,clear sky
664,Thinadhoo,MV,0.5333,72.9333,82.02,76,3,13.15,clear sky
665,Cairns,AU,-16.9167,145.7667,79.07,100,100,1.14,overcast clouds
666,Kampong Cham,KH,11.9934,105.4635,72.77,72,1,7.14,clear sky
667,Pasighat,IN,28.0667,95.3333,69.93,43,26,3.8,scattered clouds
668,San Andres,CO,12.5847,-81.7006,84.22,65,20,11.5,few clouds
669,Korcula,HR,42.9622,17.1369,56.61,76,100,25.03,overcast clouds
670,Porbandar,IN,21.6422,69.6093,77.47,45,0,9.15,clear sky
671,Wajima,JP,37.4,136.9,51.62,85,13,11.77,few clouds
672,Turayf,SA,31.6725,38.6637,54.36,62,7,11.41,clear sky
673,Morondava,MG,-20.2833,44.2833,81.23,79,90,15.7,overcast clouds
674,Keflavik,IS,64.0049,-22.5624,28.83,46,75,16.11,broken clouds
675,Kant,IN,27.8,79.8,70.92,20,48,4.21,scattered clouds
676,Bangkalan,ID,-7.0455,112.7351,76.95,87,89,4.85,overcast clouds
677,Slanic,RO,45.25,25.9333,50.05,70,66,4.38,broken clouds
678,Martapura,ID,-3.4167,114.85,75.29,100,85,1.14,overcast clouds
679,Russell,US,32.3502,-85.1999,70.88,28,53,8.86,broken clouds
680,Pithiviers,FR,48.1667,2.25,55.83,86,100,19.57,overcast clouds
681,Mitchell,US,43.7094,-98.0298,24.75,82,100,13.8,overcast clouds
682,Kurilsk,RU,45.2333,147.8833,25.16,85,99,16.96,overcast clouds
683,Acari,PE,-15.4311,-74.6158,84.33,59,78,11.65,broken clouds
684,Yongchang,CN,30.0381,119.7317,56.57,88,100,4.72,overcast clouds
685,Rossland,CA,49.0831,-117.8022,29.62,61,47,3.85,scattered clouds
686,Naryan-Mar,RU,67.6713,53.087,7.07,94,96,14.27,overcast clouds
687,Bilma,NE,18.6853,12.9164,89.37,9,37,7.74,scattered clouds
688,Pangnirtung,CA,66.1451,-65.7125,23.94,89,53,0.34,broken clouds
689,Marawi,PH,7.9986,124.2928,68.49,97,71,2.42,broken clouds
690,Ossora,RU,59.2353,163.0719,10.42,90,100,7.23,overcast clouds
691,Nadym,RU,65.5333,72.5167,-11.09,90,36,10.8,scattered clouds
692,Yerbogachen,RU,61.2767,108.0108,4.87,99,100,2.95,overcast clouds
693,Tambacounda,SN,13.7539,-13.7586,103.78,6,0,11.83,clear sky
694,Bonthe,SL,7.5264,-12.505,83.07,61,66,12.64,broken clouds
695,Caratinga,BR,-19.7897,-42.1392,78.57,69,99,5.01,overcast clouds
696,Sur,OM,22.5667,59.5289,76.33,57,0,6.44,clear sky
697,Snezhnogorsk,RU,69.1933,33.2531,2.79,97,45,10.54,scattered clouds
698,Olinda,BR,-8.0089,-34.8553,85.73,62,40,10.36,scattered clouds
699,Bestobe,KZ,52.4994,73.0975,15.94,90,6,10.58,clear sky
700,Berlevag,NO,70.8578,29.0864,23.0,74,75,17.27,light snow
701,Hualmay,PE,-11.0964,-77.6139,79.72,65,84,9.8,broken clouds
702,Luzhou,CN,28.8724,105.4405,64.69,76,97,1.43,overcast clouds
703,Daru,PG,-9.0763,143.2092,75.83,90,31,9.84,scattered clouds
704,Hambantota,LK,6.1241,81.1185,78.08,79,3,15.9,clear sky
705,Hornepayne,CA,49.2138,-84.7705,20.98,88,100,4.94,overcast clouds
706,Mahibadhoo,MV,3.7833,72.9667,81.9,79,4,14.34,clear sky
707,Bosaso,SO,11.2842,49.1816,77.47,80,17,2.71,few clouds
708,Miyako,JP,39.6367,141.9525,45.68,84,91,6.29,overcast clouds
709,Chatra,IN,24.2167,84.8667,66.4,38,27,3.62,scattered clouds
710,Imbituba,BR,-28.24,-48.6703,86.86,67,50,14.14,scattered clouds
711,Beringovskiy,RU,63.05,179.3167,-2.83,100,39,3.85,scattered clouds
712,Raudeberg,NO,61.9875,5.1352,29.07,75,74,16.58,light snow
713,Almaznyy,RU,48.0448,40.045,45.41,71,99,10.36,overcast clouds
714,Puerto Del Rosario,ES,28.5004,-13.8627,67.75,77,20,10.36,few clouds
715,Chateauroux,FR,46.8167,1.7,55.4,88,75,16.11,broken clouds
716,Jambi,ID,-1.6,103.6167,72.45,99,73,2.42,broken clouds
717,Emba,KZ,48.8264,58.1442,21.02,77,92,8.16,overcast clouds
718,Le Pradet,FR,43.1066,6.0172,59.61,84,0,5.75,clear sky
719,Culleredo,ES,43.2879,-8.3886,61.25,73,40,12.66,scattered clouds
720,Xining,CN,36.6167,101.7667,37.74,40,34,1.45,scattered clouds
721,Sangar,RU,63.9242,127.4739,-3.68,90,95,11.63,overcast clouds
722,Miyang,CN,24.4042,103.4428,54.1,91,4,4.05,clear sky
723,Mahenge,TZ,-8.6833,36.7167,67.35,84,96,3.15,overcast clouds
724,Ignacio Zaragoza,MX,28.3833,-107.2167,69.12,20,100,14.54,overcast clouds
725,Tongliao,CN,43.6125,122.2653,33.96,54,78,7.45,broken clouds
726,Belyy Yar,RU,53.6039,91.3903,35.49,71,0,8.95,clear sky
727,Gossaigaon,IN,26.4481,89.989,69.26,33,0,2.93,clear sky
728,Pismo Beach,US,35.1428,-120.6413,55.04,65,0,4.61,clear sky
729,Saint-Joseph,RE,-21.3667,55.6167,77.38,76,72,11.61,broken clouds
730,Itupiranga,BR,-5.1347,-49.3267,80.92,87,99,3.27,overcast clouds
731,Sri Aman,MY,1.2376,111.4621,73.11,99,83,1.63,broken clouds
